{"type": "FeatureCollection", "features": [{"type": "Feature", "geometry": {"type": "Point", "coordinates": [177.3332949, -18.0864886]}, "properties": {"name": "Maro 33kV Substation", "power": "substation", "voltage": "33000", "generator_source": "", "generator_output": "", "operator": "EFL"}}, {"type": "Feature", "geometry": {"type": "Point", "coordinates": [178.4567836, -18.1044387]}, "properties": {"name": "EFL 132kV Substation", "power": "substation", "voltage": "132000;33000", "generator_source": "", "generator_output": "", "operator": "EFL"}}, {"type": "Feature", "geometry": {"type": "Point", "coordinates": [178.102773, -17.7409836]}, "properties": {"name": "Wailoa 132kV Substation", "power": "substation", "voltage": "132000", "generator_source": "", "generator_output": "", "operator": ""}}, {"type": "Feature", "geometry": {"type": "Point", "coordinates": [177.2783234, -17.9427861]}, "properties": {"name": "Substation", "power": "substation", "voltage": "", "generator_source": "", "generator_output": "", "operator": ""}}, {"type": "Feature", "geometry": {"type": "Point", "coordinates": [177.5257757, -18.1095835]}, "properties": {"name": "Nacocolevu 33kV EFL Switching Yard", "power": "substation", "voltage": "33000", "generator_source": "", "generator_output": "", "operator": "EFL"}}, {"type": "Feature", "geometry": {"type": "Point", "coordinates": [177.5129014, -18.0973281]}, "properties": {"name": "Butoni EFL HV Substation", "power": "substation", "voltage": "", "generator_source": "", "generator_output": "", "operator": ""}}, {"type": "Feature", "geometry": {"type": "Point", "coordinates": [177.9269129, -17.7152713]}, "properties": {"name": "EFL 132kV Substation", "power": "substation", "voltage": "132000", "generator_source": "", "generator_output": "", "operator": ""}}, {"type": "Feature", "geometry": {"type": "Point", "coordinates": [177.4993681, -18.1501012]}, "properties": {"name": "33kV Switch Yard", "power": "substation", "voltage": "33000", "generator_source": "", "generator_output": "", "operator": ""}}, {"type": "Feature", "geometry": {"type": "Point", "coordinates": [177.7274856, -18.207098]}, "properties": {"name": "Korolevu 33kV Substation", "power": "substation", "voltage": "33000", "generator_source": "", "generator_output": "", "operator": ""}}, {"type": "Feature", "geometry": {"type": "Point", "coordinates": [178.3868056, -18.1046599]}, "properties": {"name": "Wailekutu 33kV Substation", "power": "substation", "voltage": "33000", "generator_source": "", "generator_output": "", "operator": ""}}, {"type": "Feature", "geometry": {"type": "Point", "coordinates": [177.4461094, -17.768491]}, "properties": {"name": "Waqadra EFL 33kV Substation", "power": "substation", "voltage": "33000", "generator_source": "", "generator_output": "", "operator": ""}}, {"type": "Feature", "geometry": {"type": "Point", "coordinates": [177.333301, -18.086452]}, "properties": {"name": "EFL 33kV Substation", "power": "substation", "voltage": "33000", "generator_source": "", "generator_output": "", "operator": ""}}, {"type": "Feature", "geometry": {"type": "Point", "coordinates": [177.3549877, -18.0536854]}, "properties": {"name": "EFL 33 kV Substation", "power": "substation", "voltage": "33000", "generator_source": "", "generator_output": "", "operator": "EFL"}}, {"type": "Feature", "geometry": {"type": "Point", "coordinates": [177.4357394, -17.6227383]}, "properties": {"name": "Pineapple Corner EFL 33kV Substation", "power": "plant", "voltage": "", "generator_source": "", "generator_output": "", "operator": "EFL"}}, {"type": "Feature", "geometry": {"type": "Point", "coordinates": [177.4563188, -17.74315]}, "properties": {"name": "Nasoso EFL 33kV Substation", "power": "plant", "voltage": "", "generator_source": "", "generator_output": "", "operator": "Energy Fiji Limited"}}, {"type": "Feature", "geometry": {"type": "Point", "coordinates": [177.4762961, -17.7257722]}, "properties": {"name": "Sabeto 33kV Switching Station", "power": "substation", "voltage": "33000", "generator_source": "", "generator_output": "", "operator": ""}}, {"type": "Feature", "geometry": {"type": "Point", "coordinates": [178.0931754, -18.2382919]}, "properties": {"name": "EFL 33kV Substation", "power": "substation", "voltage": "33000", "generator_source": "", "generator_output": "", "operator": ""}}, {"type": "Feature", "geometry": {"type": "Point", "coordinates": [178.1868763, -17.3401094]}, "properties": {"name": "Rakiraki EFL 33kV Substation", "power": "substation", "voltage": "33000", "generator_source": "", "generator_output": "", "operator": ""}}, {"type": "Feature", "geometry": {"type": "Point", "coordinates": [177.8649831, -17.4562587]}, "properties": {"name": "Tavua EFL 33kV Substation", "power": "substation", "voltage": "33000", "generator_source": "", "generator_output": "", "operator": ""}}, {"type": "Feature", "geometry": {"type": "Point", "coordinates": [177.6834374, -17.5484459]}, "properties": {"name": "Rarawai EFL 33kV Substation", "power": "substation", "voltage": "33000", "generator_source": "", "generator_output": "", "operator": "Energy Fiji Limited"}}, {"type": "Feature", "geometry": {"type": "Point", "coordinates": [179.3807374, -16.4161625]}, "properties": {"name": "Substation", "power": "substation", "voltage": "33000", "generator_source": "", "generator_output": "", "operator": ""}}, {"type": "Feature", "geometry": {"type": "Point", "coordinates": [178.908418, -16.5905552]}, "properties": {"name": "Dreketi Substation", "power": "substation", "voltage": "33000", "generator_source": "", "generator_output": "", "operator": ""}}]}