{"type": "FeatureCollection", "features": [{"type": "Feature", "id": 0, "geometry": {"type": "Point", "coordinates": [178.32049188844366, -17.82496234823035]}, "properties": {"name": "Vunidawa Hospital", "type": "Sub Divisional Hospital", "sub_division": "Naitasiri Sub Division", "division": "Central Division"}}, {"type": "Feature", "id": 1, "geometry": {"type": "Point", "coordinates": [178.3207428888225, -17.82496234873324]}, "properties": {"name": "Vunidawa Health Center", "type": "Health Center", "sub_division": "Naitasiri Sub Division", "division": "Central Division"}}, {"type": "Feature", "id": 2, "geometry": {"type": "Point", "coordinates": [178.25292388934116, -17.776962335807916]}, "properties": {"name": "Nakorosule Health Center", "type": "Health Center", "sub_division": "Naitasiri Sub Division", "division": "Central Division"}}, {"type": "Feature", "id": 3, "geometry": {"type": "Point", "coordinates": [178.35968188892923, -17.87096236128716]}, "properties": {"name": "Lomaivuna Nursing Station", "type": "Nursing Station", "sub_division": "Naitasiri Sub Division", "division": "Central Division"}}, {"type": "Feature", "id": 4, "geometry": {"type": "Point", "coordinates": [178.32679688873327, -17.980962391616455]}, "properties": {"name": "Waidina Nursing Station", "type": "Nursing Station", "sub_division": "Naitasiri Sub Division", "division": "Central Division"}}, {"type": "Feature", "id": 5, "geometry": {"type": "Point", "coordinates": [178.83351488921798, -17.67696230863042]}, "properties": {"name": "Levuka Hospital", "type": "Sub Divisional Hospital", "sub_division": "Lomaiviti Sub Division", "division": "Eastern Division"}}, {"type": "Feature", "id": 6, "geometry": {"type": "Point", "coordinates": [178.83329888879538, -17.682962309546262]}, "properties": {"name": "Levuka Health Center", "type": "Health Center", "sub_division": "Lomaiviti Sub Division", "division": "Eastern Division"}}, {"type": "Feature", "id": 7, "geometry": {"type": "Point", "coordinates": [178.76340688914075, -17.709962317770927]}, "properties": {"name": "Bureta Health Center", "type": "Health Center", "sub_division": "Lomaiviti Sub Division", "division": "Eastern Division"}}, {"type": "Feature", "id": 8, "geometry": {"type": "Point", "coordinates": [179.43906898818852, -17.307962209264126]}, "properties": {"name": "Nasau Health Center", "type": "Health Center", "sub_division": "Lomaiviti Sub Division", "division": "Eastern Division"}}, {"type": "Feature", "id": 9, "geometry": {"type": "Point", "coordinates": [179.43134488956633, -17.24796219308654]}, "properties": {"name": "Nacamaki Nursing Station", "type": "Nursing Station", "sub_division": "Lomaiviti Sub Division", "division": "Eastern Division"}}, {"type": "Feature", "id": 10, "geometry": {"type": "Point", "coordinates": [179.36327488883387, -17.291962205243305]}, "properties": {"name": "Nabasovi Nursing Station", "type": "Nursing Station", "sub_division": "Lomaiviti Sub Division", "division": "Eastern Division"}}, {"type": "Feature", "id": 11, "geometry": {"type": "Point", "coordinates": [179.27183588935392, -17.944962381049514]}, "properties": {"name": "Qarani Health Center", "type": "Health Center", "sub_division": "Lomaiviti Sub Division", "division": "Eastern Division"}}, {"type": "Feature", "id": 12, "geometry": {"type": "Point", "coordinates": [179.46741988868152, -16.79896207437782]}, "properties": {"name": "Nacavanadi Nursing Station", "type": "Nursing Station", "sub_division": "Lomaiviti Sub Division", "division": "Eastern Division"}}, {"type": "Feature", "id": 13, "geometry": {"type": "Point", "coordinates": [179.26762288891365, -18.01796240071289]}, "properties": {"name": "Nawaikama Nursing Station", "type": "Nursing Station", "sub_division": "Lomaiviti Sub Division", "division": "Eastern Division"}}, {"type": "Feature", "id": 14, "geometry": {"type": "Point", "coordinates": [179.35539888875311, -18.107962426379533]}, "properties": {"name": "Narocake Nursing Station", "type": "Nursing Station", "sub_division": "Lomaiviti Sub Division", "division": "Eastern Division"}}, {"type": "Feature", "id": 15, "geometry": {"type": "Point", "coordinates": [179.40023188864504, -17.807962343909832]}, "properties": {"name": "Nairai Nursing Station", "type": "Nursing Station", "sub_division": "Lomaiviti Sub Division", "division": "Eastern Division"}}, {"type": "Feature", "id": 16, "geometry": {"type": "Point", "coordinates": [179.14807688900763, -17.79096233984825]}, "properties": {"name": "Batiki Nursing Station", "type": "Nursing Station", "sub_division": "Lomaiviti Sub Division", "division": "Eastern Division"}}, {"type": "Feature", "id": 17, "geometry": {"type": "Point", "coordinates": [178.7563148893098, -17.762962331845667]}, "properties": {"name": "Moturiki Nursing Station", "type": "Nursing Station", "sub_division": "Lomaiviti Sub Division", "division": "Eastern Division"}}, {"type": "Feature", "id": 18, "geometry": {"type": "Point", "coordinates": [178.1629658886368, -19.04696268919488]}, "properties": {"name": "Vunisea Hospital", "type": "Sub Divisional Hospital", "sub_division": "Kadavu Sub Division", "division": "Eastern Division"}}, {"type": "Feature", "id": 19, "geometry": {"type": "Point", "coordinates": [178.16330188935189, -19.04696268961227]}, "properties": {"name": "Vunisea Health Center", "type": "Health Center", "sub_division": "Kadavu Sub Division", "division": "Eastern Division"}}, {"type": "Feature", "id": 20, "geometry": {"type": "Point", "coordinates": [177.9879378885681, -19.13796271489598]}, "properties": {"name": "Daviqele Health Center", "type": "Health Center", "sub_division": "Kadavu Sub Division", "division": "Eastern Division"}}, {"type": "Feature", "id": 21, "geometry": {"type": "Point", "coordinates": [178.42847088885384, -18.969962667660134]}, "properties": {"name": "Kavala Health Center", "type": "Health Center", "sub_division": "Kadavu Sub Division", "division": "Eastern Division"}}, {"type": "Feature", "id": 22, "geometry": {"type": "Point", "coordinates": [178.13148788845754, -19.13196271334741]}, "properties": {"name": "Ravitaki Nursing Station", "type": "Nursing Station", "sub_division": "Kadavu Sub Division", "division": "Eastern Division"}}, {"type": "Feature", "id": 23, "geometry": {"type": "Point", "coordinates": [178.32291188847285, -19.012962679703694]}, "properties": {"name": "Soso Nursing Station", "type": "Nursing Station", "sub_division": "Kadavu Sub Division", "division": "Eastern Division"}}, {"type": "Feature", "id": 24, "geometry": {"type": "Point", "coordinates": [178.30082488884187, -18.951962662905245]}, "properties": {"name": "Gasele Nursing Station", "type": "Nursing Station", "sub_division": "Kadavu Sub Division", "division": "Eastern Division"}}, {"type": "Feature", "id": 25, "geometry": {"type": "Point", "coordinates": [178.05286588861682, -19.07096269691833]}, "properties": {"name": "Nalotu Nursing Station", "type": "Nursing Station", "sub_division": "Kadavu Sub Division", "division": "Eastern Division"}}, {"type": "Feature", "id": 26, "geometry": {"type": "Point", "coordinates": [178.4278888888432, -19.02596268354104]}, "properties": {"name": "Vacalea Nursing Station", "type": "Nursing Station", "sub_division": "Kadavu Sub Division", "division": "Eastern Division"}}, {"type": "Feature", "id": 27, "geometry": {"type": "Point", "coordinates": [178.00799588797906, -19.106962706400626]}, "properties": {"name": "Talaulia Nursing Station", "type": "Nursing Station", "sub_division": "Kadavu Sub Division", "division": "Eastern Division"}}, {"type": "Feature", "id": 28, "geometry": {"type": "Point", "coordinates": [178.4931148892793, -18.878962642022607]}, "properties": {"name": "Naqara Nursing Station", "type": "Nursing Station", "sub_division": "Kadavu Sub Division", "division": "Eastern Division"}}, {"type": "Feature", "id": 29, "geometry": {"type": "Point", "coordinates": [-178.8061031116077, -18.238962461920313]}, "properties": {"name": "Lakeba Hospital", "type": "Sub Divisional Hospital", "sub_division": "Lakeba Sub Division", "division": "Eastern Division"}}, {"type": "Feature", "id": 30, "geometry": {"type": "Point", "coordinates": [-178.8061851114291, -18.238962461976286]}, "properties": {"name": "Lakena Health Center", "type": "Health Center", "sub_division": "Lakeba Sub Division", "division": "Eastern Division"}}, {"type": "Feature", "id": 31, "geometry": {"type": "Point", "coordinates": [-179.82110661147928, -18.95696266350766]}, "properties": {"name": "Totoya Nursing Station", "type": "Nursing Station", "sub_division": "Lakeba Sub Division", "division": "Eastern Division"}}, {"type": "Feature", "id": 32, "geometry": {"type": "Point", "coordinates": [-178.9511891105909, -18.917962652303945]}, "properties": {"name": "Kabara Health Center", "type": "Health Center", "sub_division": "Lakeba Sub Division", "division": "Eastern Division"}}, {"type": "Feature", "id": 33, "geometry": {"type": "Point", "coordinates": [-178.57885161125756, -19.150962718705383]}, "properties": {"name": "Fulaga Nursing Station", "type": "Nursing Station", "sub_division": "Lakeba Sub Division", "division": "Eastern Division"}}, {"type": "Feature", "id": 34, "geometry": {"type": "Point", "coordinates": [-178.4082570109541, -19.15896272192318]}, "properties": {"name": "Ogea Nursing Station", "type": "Nursing Station", "sub_division": "Lakeba Sub Division", "division": "Eastern Division"}}, {"type": "Feature", "id": 35, "geometry": {"type": "Point", "coordinates": [-178.94198511080617, -18.982962671246046]}, "properties": {"name": "Udu Nursing Station", "type": "Nursing Station", "sub_division": "Lakeba Sub Division", "division": "Eastern Division"}}, {"type": "Feature", "id": 36, "geometry": {"type": "Point", "coordinates": [179.74257188882564, -19.134962715305534]}, "properties": {"name": "Matuku Health Center", "type": "Health Center", "sub_division": "Lakeba Sub Division", "division": "Eastern Division"}}, {"type": "Feature", "id": 37, "geometry": {"type": "Point", "coordinates": [179.7614138892595, -19.189962730077024]}, "properties": {"name": "Levuka I Daku Nursing Station", "type": "Nursing Station", "sub_division": "Lakeba Sub Division", "division": "Eastern Division"}}, {"type": "Feature", "id": 38, "geometry": {"type": "Point", "coordinates": [-178.63603611176467, -18.851962633540936]}, "properties": {"name": "Namuka Nursing Station", "type": "Nursing Station", "sub_division": "Lakeba Sub Division", "division": "Eastern Division"}}, {"type": "Feature", "id": 39, "geometry": {"type": "Point", "coordinates": [-178.5013761104671, -18.67096258296224]}, "properties": {"name": "Moce Nursing Station", "type": "Nursing Station", "sub_division": "Lakeba Sub Division", "division": "Eastern Division"}}, {"type": "Feature", "id": 40, "geometry": {"type": "Point", "coordinates": [-178.48527611058213, -18.44596252033336]}, "properties": {"name": "Oneata Nursing Station", "type": "Nursing Station", "sub_division": "Lakeba Sub Division", "division": "Eastern Division"}}, {"type": "Feature", "id": 41, "geometry": {"type": "Point", "coordinates": [-178.6186561112867, -18.682962586611403]}, "properties": {"name": "Komo Nursing Station", "type": "Nursing Station", "sub_division": "Lakeba Sub Division", "division": "Eastern Division"}}, {"type": "Feature", "id": 42, "geometry": {"type": "Point", "coordinates": [-179.0316241111513, -17.976962390007515]}, "properties": {"name": "Salia Nursing Station", "type": "Nursing Station", "sub_division": "Lakeba Sub Division", "division": "Eastern Division"}}, {"type": "Feature", "id": 43, "geometry": {"type": "Point", "coordinates": [-179.27738611133645, -18.362962496833262]}, "properties": {"name": "Vanuavatu Nursing Station", "type": "Nursing Station", "sub_division": "Lakeba Sub Division", "division": "Eastern Division"}}, {"type": "Feature", "id": 44, "geometry": {"type": "Point", "coordinates": [-178.72278011116003, -20.662963164466504]}, "properties": {"name": "Ono I Lau Health Center", "type": "Health Center", "sub_division": "Lakeba Sub Division", "division": "Eastern Division"}}, {"type": "Feature", "id": 45, "geometry": {"type": "Point", "coordinates": [-178.25140711106368, -19.820962913280283]}, "properties": {"name": "Vatoa Nursing Station", "type": "Nursing Station", "sub_division": "Lakeba Sub Division", "division": "Eastern Division"}}, {"type": "Feature", "id": 46, "geometry": {"type": "Point", "coordinates": [179.90174388897387, -18.63196257213211]}, "properties": {"name": "Nasoki Nursing Station", "type": "Nursing Station", "sub_division": "Lakeba Sub Division", "division": "Eastern Division"}}, {"type": "Feature", "id": 47, "geometry": {"type": "Point", "coordinates": [179.87423388851659, -18.627962570139065]}, "properties": {"name": "Cakova Nursing Station", "type": "Nursing Station", "sub_division": "Lakeba Sub Division", "division": "Eastern Division"}}, {"type": "Feature", "id": 48, "geometry": {"type": "Point", "coordinates": [179.93440388936762, -18.55996255229476]}, "properties": {"name": "Moala Health Center", "type": "Health Center", "sub_division": "Lakeba Sub Division", "division": "Eastern Division"}}, {"type": "Feature", "id": 49, "geometry": {"type": "Point", "coordinates": [-178.9860415113485, -17.289962203828495]}, "properties": {"name": "Lomaloma Hospital", "type": "Sub Divisional Hospital", "sub_division": "Lomaloma Sub Division", "division": "Eastern Division"}}, {"type": "Feature", "id": 50, "geometry": {"type": "Point", "coordinates": [-178.98609711108148, -17.29096220463694]}, "properties": {"name": "Lomaloma Health Center", "type": "Health Center", "sub_division": "Lomaloma Sub Division", "division": "Eastern Division"}}, {"type": "Feature", "id": 51, "geometry": {"type": "Point", "coordinates": [-178.95271991082313, -17.247962193094356]}, "properties": {"name": "Mualevu Nursing Station", "type": "Nursing Station", "sub_division": "Lomaloma Sub Division", "division": "Eastern Division"}}, {"type": "Feature", "id": 52, "geometry": {"type": "Point", "coordinates": [-178.82352811077254, -17.685962310750398]}, "properties": {"name": "Tuvuca Nursing Station", "type": "Nursing Station", "sub_division": "Lomaloma Sub Division", "division": "Eastern Division"}}, {"type": "Feature", "id": 53, "geometry": {"type": "Point", "coordinates": [-179.32673811146108, -17.72396232109334]}, "properties": {"name": "Cicia Health Center", "type": "Health Center", "sub_division": "Lomaloma Sub Division", "division": "Eastern Division"}}, {"type": "Feature", "id": 54, "geometry": {"type": "Point", "coordinates": [177.04725188935933, -12.498961052114511]}, "properties": {"name": "Rotuma Hospital", "type": "Sub Divisional Hospital", "sub_division": "Lomaloma Sub Division", "division": "Eastern Division"}}, {"type": "Feature", "id": 55, "geometry": {"type": "Point", "coordinates": [177.047144888916, -12.498961051601079]}, "properties": {"name": "Rotuma Health Center", "type": "Health Center", "sub_division": "Lomaloma Sub Division", "division": "Eastern Division"}}, {"type": "Feature", "id": 56, "geometry": {"type": "Point", "coordinates": [178.43223691980498, -18.13464077007566]}, "properties": {"name": "Colonial War Memorial Hospital", "type": "Divisional Hospital", "sub_division": "Suva Sub Division", "division": "Central Division"}}, {"type": "Feature", "id": 57, "geometry": {"type": "Point", "coordinates": [178.4319786499821, -18.137899820674974]}, "properties": {"name": "Suva Health Center", "type": "Health Center", "sub_division": "Suva Sub Division", "division": "Central Division"}}, {"type": "Feature", "id": 58, "geometry": {"type": "Point", "coordinates": [178.45031576297774, -18.137128420359893]}, "properties": {"name": "Raiwaqa Health Center", "type": "Health Center", "sub_division": "Suva Sub Division", "division": "Central Division"}}, {"type": "Feature", "id": 59, "geometry": {"type": "Point", "coordinates": [178.444116581542, -18.124464912338983]}, "properties": {"name": "Samabula Health Center", "type": "Health Center", "sub_division": "Suva Sub Division", "division": "Central Division"}}, {"type": "Feature", "id": 60, "geometry": {"type": "Point", "coordinates": [178.44707925807805, -18.092195626662203]}, "properties": {"name": "Nuffield Health Center", "type": "Health Center", "sub_division": "Suva Sub Division", "division": "Central Division"}}, {"type": "Feature", "id": 61, "geometry": {"type": "Point", "coordinates": [178.4810789608501, -18.093973340282812]}, "properties": {"name": "Valelevu Health Center", "type": "Health Center", "sub_division": "Suva Sub Division", "division": "Central Division"}}, {"type": "Feature", "id": 62, "geometry": {"type": "Point", "coordinates": [178.4154713784119, -18.112258414597658]}, "properties": {"name": "Lami Health Center", "type": "Health Center", "sub_division": "Suva Sub Division", "division": "Central Division"}}, {"type": "Feature", "id": 63, "geometry": {"type": "Point", "coordinates": [178.30405051070196, -18.137965668858985]}, "properties": {"name": "Naboro Nursing Station", "type": "Nursing Station", "sub_division": "Suva Sub Division", "division": "Central Division"}}, {"type": "Feature", "id": 64, "geometry": {"type": "Point", "coordinates": [178.4435483303973, -18.156565720414807]}, "properties": {"name": "Shree Sathya Sai Clinic", "type": "Health Center", "sub_division": "Suva Sub Division", "division": "Central Division"}}, {"type": "Feature", "id": 65, "geometry": {"type": "Point", "coordinates": [178.18924143921504, -18.191522545750857]}, "properties": {"name": "Navua Hospital", "type": "Sub Divisional Hospital", "sub_division": "Serua/Namosi Sub Division", "division": "Central Division"}}, {"type": "Feature", "id": 66, "geometry": {"type": "Point", "coordinates": [178.18949963515894, -18.19202885680892]}, "properties": {"name": "Navua Health Center", "type": "Health Center", "sub_division": "Serua/Namosi Sub Division", "division": "Central Division"}}, {"type": "Feature", "id": 67, "geometry": {"type": "Point", "coordinates": [178.13403287985224, -18.411161434779746]}, "properties": {"name": "Beqa Health Center", "type": "Health Center", "sub_division": "Serua/Namosi Sub Division", "division": "Central Division"}}, {"type": "Feature", "id": 68, "geometry": {"type": "Point", "coordinates": [178.108173317886, -18.374456603323562]}, "properties": {"name": "Raviravi Nursing Station", "type": "Nursing Station", "sub_division": "Serua/Namosi Sub Division", "division": "Central Division"}}, {"type": "Feature", "id": 69, "geometry": {"type": "Point", "coordinates": [177.8851658458131, -18.248260088993305]}, "properties": {"name": "Korovisilou Health Center", "type": "Health Center", "sub_division": "Serua/Namosi Subdivision", "division": "Central Division"}}, {"type": "Feature", "id": 70, "geometry": {"type": "Point", "coordinates": [178.00540264873922, -18.259563878701854]}, "properties": {"name": "Galoa Nursing Station", "type": "Nursing Station", "sub_division": "Serua/Namosi Sub Division", "division": "Central Division"}}, {"type": "Feature", "id": 71, "geometry": {"type": "Point", "coordinates": [178.05979889862505, -18.093011757771016]}, "properties": {"name": "Namuamua Health Center", "type": "Health Center", "sub_division": "Serua/Namosi Subdivision", "division": "Central Division"}}, {"type": "Feature", "id": 72, "geometry": {"type": "Point", "coordinates": [178.17818663344377, -18.032892102974525]}, "properties": {"name": "Waivaka Nursing Station", "type": "Nursing Station", "sub_division": "Serua/Namosi Sub Division", "division": "Central Division"}}, {"type": "Feature", "id": 73, "geometry": {"type": "Point", "coordinates": [178.07204105630993, -18.042701906151468]}, "properties": {"name": "Navunikabi Nursing Station", "type": "Nursing Station", "sub_division": "Serua/Namosi Sub Division", "division": "Central Division"}}, {"type": "Feature", "id": 74, "geometry": {"type": "Point", "coordinates": [178.07863191862256, -17.979355310413375]}, "properties": {"name": "Naqarawai Nursing Station", "type": "Nursing Station", "sub_division": "Serua/Namosi Sub Division", "division": "Central Division"}}, {"type": "Feature", "id": 75, "geometry": {"type": "Point", "coordinates": [178.5313838498586, -18.029204708447033]}, "properties": {"name": "Nausori Health Center", "type": "Health Center", "sub_division": "Nausori Sub Division", "division": "Central Division"}}, {"type": "Feature", "id": 76, "geometry": {"type": "Point", "coordinates": [178.53068028889857, -18.02925703615812]}, "properties": {"name": "Nausori Maternity Unit", "type": "Health Center", "sub_division": "Nausori Sub Division", "division": "Central Division"}}, {"type": "Feature", "id": 77, "geometry": {"type": "Point", "coordinates": [178.59960469304443, -18.008356142830287]}, "properties": {"name": "Mokani Health Center", "type": "Health Center", "sub_division": "Nausori Sub Division", "division": "Central Division"}}, {"type": "Feature", "id": 78, "geometry": {"type": "Point", "coordinates": [178.57344909510923, -18.06965816752101]}, "properties": {"name": "Wainibokasi Hospital", "type": "Sub Divisional Hospital", "sub_division": "Nausori Sub Division", "division": "Central Division"}}, {"type": "Feature", "id": 79, "geometry": {"type": "Point", "coordinates": [178.5736784946144, -18.070046604072697]}, "properties": {"name": "Wainibokasi Health Center", "type": "Health Center", "sub_division": "Nausori Sub Division", "division": "Central Division"}}, {"type": "Feature", "id": 80, "geometry": {"type": "Point", "coordinates": [178.55396103557706, -18.103735036001584]}, "properties": {"name": "Naililili Nursing Station", "type": "Nursing Station", "sub_division": "Nausori Sub Division", "division": "Central Division"}}, {"type": "Feature", "id": 81, "geometry": {"type": "Point", "coordinates": [178.58668409894892, -17.946004331650744]}, "properties": {"name": "Namara Nursing Station", "type": "Nursing Station", "sub_division": "Nausori Sub Division", "division": "Central Division"}}, {"type": "Feature", "id": 82, "geometry": {"type": "Point", "coordinates": [178.4373761239922, -17.964578286728628]}, "properties": {"name": "Baulevu Nursing Station", "type": "Nursing Station", "sub_division": "Nausori Sub Division", "division": "Central Division"}}, {"type": "Feature", "id": 83, "geometry": {"type": "Point", "coordinates": [178.5150831527692, -18.06078342037594]}, "properties": {"name": "Nakasi Health Center", "type": "Health Center", "sub_division": "Nausori Sub Division", "division": "Central Division"}}, {"type": "Feature", "id": 84, "geometry": {"type": "Point", "coordinates": [178.49915388834077, -18.075442416975537]}, "properties": {"name": "Makoi Health Center", "type": "Health Center", "sub_division": "Suva Sub Division", "division": "Central Division"}}, {"type": "Feature", "id": 85, "geometry": {"type": "Point", "coordinates": [179.38015388885032, -16.432133980218477]}, "properties": {"name": "Labasa Hospital", "type": "Divisional Hospital", "sub_division": "Macuata Sub Division", "division": "Northern Division"}}, {"type": "Feature", "id": 86, "geometry": {"type": "Point", "coordinates": [177.45415388873374, -17.61479229163757]}, "properties": {"name": "Lautoka Hospital", "type": "Divisional Hospital", "sub_division": "Lautoka/Yasawa Sub Division", "division": "Western Division"}}, {"type": "Feature", "id": 87, "geometry": {"type": "Point", "coordinates": [178.4341538890416, -18.123617430045712]}, "properties": {"name": "St Giles Psychiatric Hospital", "type": "Specialised Hospital", "sub_division": "Suva Sub Division", "division": "Central Division"}}, {"type": "Feature", "id": 88, "geometry": {"type": "Point", "coordinates": [178.44815388908637, -18.093204422158514]}, "properties": {"name": "Towmey Hospital", "type": "Specialised Hospital", "sub_division": "Suva Sub Division", "division": "Central Division"}}, {"type": "Feature", "id": 89, "geometry": {"type": "Point", "coordinates": [178.43315388911267, -18.136934434065186]}, "properties": {"name": "Oceania Private Hospital", "type": "Private Hospital", "sub_division": "Suva Sub Division", "division": "Central Division"}}, {"type": "Feature", "id": 90, "geometry": {"type": "Point", "coordinates": [178.45915388898516, -18.113631427622053]}, "properties": {"name": "Military Hospital", "type": "Private Hospital", "sub_division": "Suva Sub Division", "division": "Central Division"}}, {"type": "Feature", "id": 91, "geometry": {"type": "Point", "coordinates": [178.43315388836032, -18.13522543426079]}, "properties": {"name": "Oxfam Clinic", "type": "Health Center", "sub_division": "Suva Sub Division", "division": "Central Division"}}, {"type": "Feature", "id": 92, "geometry": {"type": "Point", "coordinates": [178.53615388891842, -17.80509734391302]}, "properties": {"name": "Korovou Hospital", "type": "Sub Divisional Hospital", "sub_division": "Tailevu Sub Division", "division": "Central Division"}}, {"type": "Feature", "id": 93, "geometry": {"type": "Point", "coordinates": [177.50115388867178, -18.151497438193598]}, "properties": {"name": "Sigatoka Hospital", "type": "Sub Divisional Hospital", "sub_division": "Nadroga/Sigatoka Sub Division", "division": "Western Division"}}, {"type": "Feature", "id": 94, "geometry": {"type": "Point", "coordinates": [177.42215388903935, -17.805000343068716]}, "properties": {"name": "Nadi Hospital", "type": "Sub Divisional Hospital", "sub_division": "Nadi Sub Division", "division": "Western Division"}}, {"type": "Feature", "id": 95, "geometry": {"type": "Point", "coordinates": [177.865153888039, -17.44610024598437]}, "properties": {"name": "Tavua Hospital", "type": "Sub Divisional Hospital", "sub_division": "Tavua Sub Division", "division": "Western Division"}}, {"type": "Feature", "id": 96, "geometry": {"type": "Point", "coordinates": [178.1631538888752, -17.3827382288585]}, "properties": {"name": "Rakiraki Hospital", "type": "Sub Divisional Hospital", "sub_division": "Ra Sub Division", "division": "Western Division"}}, {"type": "Feature", "id": 97, "geometry": {"type": "Point", "coordinates": [177.6901538893578, -17.540263271996622]}, "properties": {"name": "Ba Health Center", "type": "Health Center", "sub_division": "Ba Sub Division", "division": "Western Division"}}, {"type": "Feature", "id": 98, "geometry": {"type": "Point", "coordinates": [177.67115388849737, -17.541013271647348]}, "properties": {"name": "Ba Mission Hospital", "type": "Sub Divisional Hospital", "sub_division": "Ba Sub Division", "division": "Western Division"}}, {"type": "Feature", "id": 99, "geometry": {"type": "Point", "coordinates": [177.70715388893223, -17.621274293273437]}, "properties": {"name": "Balevuto Health Center", "type": "Health Center", "sub_division": "Ba Sub Division", "division": "Western Division"}}, {"type": "Feature", "id": 100, "geometry": {"type": "Point", "coordinates": [177.66015388880655, -17.506073262613658]}, "properties": {"name": "Nailaga Health Center", "type": "Health Center", "sub_division": "Ba Sub Division", "division": "Western Division"}}, {"type": "Feature", "id": 101, "geometry": {"type": "Point", "coordinates": [179.3541538887953, -16.773384068485452]}, "properties": {"name": "Savusavu Hospital", "type": "Sub Divisional Hospital", "sub_division": "Cakaudrove Sub Division", "division": "Northern Division"}}, {"type": "Feature", "id": 102, "geometry": {"type": "Point", "coordinates": [-179.99584611091115, -16.79802307456682]}, "properties": {"name": "Waiyevo Hospital", "type": "Sub Divisional Hospital", "sub_division": "Taveuni Sub Division", "division": "Northern Division"}}, {"type": "Feature", "id": 103, "geometry": {"type": "Point", "coordinates": [178.69515388851192, -16.997905126746357]}, "properties": {"name": "Nabouwalu Hospital", "type": "Sub Divisional Hospital", "sub_division": "Bua Sub Division", "division": "Northern Division"}}, {"type": "Feature", "id": 104, "geometry": {"type": "Point", "coordinates": [177.45515388892113, -17.612285291400628]}, "properties": {"name": "Lautoka Health Center", "type": "Health Center", "sub_division": "Lautoka/Yasawa Sub Division", "division": "Western Division"}}, {"type": "Feature", "id": 105, "geometry": {"type": "Point", "coordinates": [177.24215388859548, -17.129422161803056]}, "properties": {"name": "Kese Health Center", "type": "Health Center", "sub_division": "Lautoka/Yasawa Sub Division", "division": "Western Division"}}, {"type": "Feature", "id": 106, "geometry": {"type": "Point", "coordinates": [177.43515388870392, -17.6392542975307]}, "properties": {"name": "Natabua Health Center", "type": "Health Center", "sub_division": "Lautoka/Yasawa Sub Division", "division": "Western Division"}}, {"type": "Feature", "id": 107, "geometry": {"type": "Point", "coordinates": [177.45315388839424, -17.630050295805784]}, "properties": {"name": "Kamikamica Health Center", "type": "Health Center", "sub_division": "Lautoka/Yasawa Sub Division", "division": "Western Division"}}, {"type": "Feature", "id": 108, "geometry": {"type": "Point", "coordinates": [177.4101538884323, -17.68647231152912]}, "properties": {"name": "Viseisei Health Center", "type": "Health Center", "sub_division": "Lautoka/Yasawa Sub Division", "division": "Western Division"}}, {"type": "Feature", "id": 109, "geometry": {"type": "Point", "coordinates": [177.46115388963884, -17.609722290523205]}, "properties": {"name": "Punjas Health Center", "type": "Health Center", "sub_division": "Lautoka/Yasawa Sub Division", "division": "Western Division"}}, {"type": "Feature", "id": 110, "geometry": {"type": "Point", "coordinates": [177.44815388913312, -17.76125433127997]}, "properties": {"name": "Namaka Health Center", "type": "Health Center", "sub_division": "Nadi Sub Division", "division": "Western Division"}}, {"type": "Feature", "id": 111, "geometry": {"type": "Point", "coordinates": [177.75815388895535, -17.77150433433693]}, "properties": {"name": "Bukuya Health Center", "type": "Health Center", "sub_division": "Nadi Sub Division", "division": "Western Division"}}, {"type": "Feature", "id": 112, "geometry": {"type": "Point", "coordinates": [177.96315388892683, -17.56726027832257]}, "properties": {"name": "Nadarivatu Health Center", "type": "Health Center", "sub_division": "Tavua Sub Division", "division": "Western Division"}}, {"type": "Feature", "id": 113, "geometry": {"type": "Point", "coordinates": [177.6051538889348, -18.181909446353487]}, "properties": {"name": "Vatukarasa Health Center", "type": "Health Center", "sub_division": "Nadroga/Navosa Sub Division", "division": "Western Division"}}, {"type": "Feature", "id": 114, "geometry": {"type": "Point", "coordinates": [177.42170688881603, -18.12719643152537]}, "properties": {"name": "Cuvu Health Center", "type": "Health Center", "sub_division": "Nadroga/Navosa Sub Division", "division": "Western Division"}}, {"type": "Feature", "id": 115, "geometry": {"type": "Point", "coordinates": [177.30615388896743, -18.033414405618597]}, "properties": {"name": "Lomawai Health Center", "type": "Health Center", "sub_division": "Nadroga/Navosa Sub Division", "division": "Western Division"}}, {"type": "Feature", "id": 116, "geometry": {"type": "Point", "coordinates": [177.54634388921292, -18.022761403326854]}, "properties": {"name": "Loma Nursing Station", "type": "Nursing Station", "sub_division": "Nadroga/Navosa Sub Division", "division": "Western Division"}}, {"type": "Feature", "id": 117, "geometry": {"type": "Point", "coordinates": [177.75547188930545, -17.8803943638666]}, "properties": {"name": "Keiyasi Health Center", "type": "Health Center", "sub_division": "Nadroga/Navosa Sub Division", "division": "Western Division"}}, {"type": "Feature", "id": 118, "geometry": {"type": "Point", "coordinates": [177.71352688918128, -17.842399352991222]}, "properties": {"name": "Wauosi Nursing Station", "type": "Nursing Station", "sub_division": "Nadroga/Navosa Sub Division", "division": "Western Division"}}, {"type": "Feature", "id": 119, "geometry": {"type": "Point", "coordinates": [177.7311538887807, -18.21367045562396]}, "properties": {"name": "Korolevu Health Center", "type": "Health Center", "sub_division": "Nadroga/Navosa Sub Division", "division": "Western Division"}}, {"type": "Feature", "id": 120, "geometry": {"type": "Point", "coordinates": [178.16780588901372, -17.625877294557142]}, "properties": {"name": "Nasau Health Center", "type": "Health Center", "sub_division": "Ra Sub Division", "division": "Western Division"}}, {"type": "Feature", "id": 121, "geometry": {"type": "Point", "coordinates": [178.36341088942942, -17.52531726724513]}, "properties": {"name": "Namarai Health Center", "type": "Health Center", "sub_division": "Ra Sub Division", "division": "Western Division"}}, {"type": "Feature", "id": 122, "geometry": {"type": "Point", "coordinates": [178.36515388857418, -17.692127312309108]}, "properties": {"name": "Nayavu Health Center", "type": "Health Center", "sub_division": "Tailevu Sub Division", "division": "Central Division"}}, {"type": "Feature", "id": 123, "geometry": {"type": "Point", "coordinates": [-179.99584611112564, -16.79784907493362]}, "properties": {"name": "Waiyevo Health Center", "type": "Health Center", "sub_division": "Taveuni Sub Division", "division": "Northern Division"}}, {"type": "Feature", "id": 124, "geometry": {"type": "Point", "coordinates": [-179.86984611144243, -16.82164208068438]}, "properties": {"name": "Bouma Nursing Station", "type": "Nursing Station", "sub_division": "Taveuni Sub Division", "division": "Northern Division"}}, {"type": "Feature", "id": 125, "geometry": {"type": "Point", "coordinates": [179.91515388915056, -16.947199113420417]}, "properties": {"name": "Vuna Health Center", "type": "Health Center", "sub_division": "Taveuni Sub Division", "division": "Northern Division"}}, {"type": "Feature", "id": 126, "geometry": {"type": "Point", "coordinates": [179.8953201889348, -16.970098319027766]}, "properties": {"name": "Vuna Nursing Station", "type": "Nursing Station", "sub_division": "Taveuni Sub Division", "division": "Northern Division"}}, {"type": "Feature", "id": 127, "geometry": {"type": "Point", "coordinates": [-179.5065248111257, -17.256962195026418]}, "properties": {"name": "Yacata Nursing Station", "type": "Nursing Station", "sub_division": "Taveuni Sub Division", "division": "Northern Division"}}, {"type": "Feature", "id": 128, "geometry": {"type": "Point", "coordinates": [-179.75070611133046, -16.788236071625914]}, "properties": {"name": "Qamea Health Center", "type": "Health Center", "sub_division": "Taveuni Sub Division", "division": "Northern Division"}}, {"type": "Feature", "id": 129, "geometry": {"type": "Point", "coordinates": [178.69464688841703, -16.997928126489878]}, "properties": {"name": "Nabouwalu Health Center", "type": "Health Center", "sub_division": "Bua Sub Division", "division": "Northern Division"}}, {"type": "Feature", "id": 130, "geometry": {"type": "Point", "coordinates": [178.70935188874418, -16.687983045700285]}, "properties": {"name": "Lekutu Health Center", "type": "Health Center", "sub_division": "Bua Sub Division", "division": "Northern Division"}}, {"type": "Feature", "id": 131, "geometry": {"type": "Point", "coordinates": [178.88113888907895, -16.857141089760532]}, "properties": {"name": "Wainunu Health Center", "type": "Health Center", "sub_division": "Bua Sub Division", "division": "Northern Division"}}, {"type": "Feature", "id": 132, "geometry": {"type": "Point", "coordinates": [179.00947288831907, -16.916962105562224]}, "properties": {"name": "Kubulau Nursing Station", "type": "Nursing Station", "sub_division": "Bua Sub Division", "division": "Northern Division"}}, {"type": "Feature", "id": 133, "geometry": {"type": "Point", "coordinates": [178.5826388888481, -16.6679620405852]}, "properties": {"name": "Navakasiga Nursing Station", "type": "Nursing Station", "sub_division": "Bua Sub Division", "division": "Northern Division"}}, {"type": "Feature", "id": 134, "geometry": {"type": "Point", "coordinates": [178.61351388950618, -16.79496207324352]}, "properties": {"name": "Bua Nursing Station", "type": "Nursing Station", "sub_division": "Bua Sub Division", "division": "Northern Division"}}, {"type": "Feature", "id": 135, "geometry": {"type": "Point", "coordinates": [178.32152288817647, -16.806106076709007]}, "properties": {"name": "Yadua Nursing Station", "type": "Nursing Station", "sub_division": "Bua Sub Division", "division": "Northern Division"}}, {"type": "Feature", "id": 136, "geometry": {"type": "Point", "coordinates": [179.86020988909522, -16.257047934544623]}, "properties": {"name": "Natewa Health Center", "type": "Health Center", "sub_division": "Cakaudrove Sub Division", "division": "Northern Division"}}, {"type": "Feature", "id": 137, "geometry": {"type": "Point", "coordinates": [179.84376788914986, -16.643079033663643]}, "properties": {"name": "Tukavesi Health Center", "type": "Health Center", "sub_division": "Cakaudrove Sub Division", "division": "Northern Division"}}, {"type": "Feature", "id": 138, "geometry": {"type": "Point", "coordinates": [179.698830889195, -16.203961921039827]}, "properties": {"name": "Saqani Health Center", "type": "Health Center", "sub_division": "Cakaudrove Sub Division", "division": "Northern Division"}}, {"type": "Feature", "id": 139, "geometry": {"type": "Point", "coordinates": [-179.99684611071618, -16.481247992808235]}, "properties": {"name": "Rabi Health Center", "type": "Health Center", "sub_division": "Cakaudrove Sub Division", "division": "Northern Division"}}, {"type": "Feature", "id": 140, "geometry": {"type": "Point", "coordinates": [179.55961188914105, -16.573962015884383]}, "properties": {"name": "Korotasere Health Center", "type": "Health Center", "sub_division": "Cakaudrove Sub Division", "division": "Northern Division"}}, {"type": "Feature", "id": 141, "geometry": {"type": "Point", "coordinates": [179.1422978887846, -16.747030060993474]}, "properties": {"name": "Nakorovatu Health Center", "type": "Health Center", "sub_division": "Cakaudrove Sub Division", "division": "Northern Division"}}, {"type": "Feature", "id": 142, "geometry": {"type": "Point", "coordinates": [179.58146088837623, -16.790474072649722]}, "properties": {"name": "Naweni Nursing Station", "type": "Nursing Station", "sub_division": "Cakaudrove Sub Division", "division": "Northern Division"}}, {"type": "Feature", "id": 143, "geometry": {"type": "Point", "coordinates": [179.72589198835703, -16.71565665324843]}, "properties": {"name": "Bagasau Nursing Station", "type": "Nursing Station", "sub_division": "Cakaudrove Sub Division", "division": "Northern Division"}}, {"type": "Feature", "id": 144, "geometry": {"type": "Point", "coordinates": [179.90323888831716, -16.667962040529456]}, "properties": {"name": "Kioa Nursing Station", "type": "Nursing Station", "sub_division": "Cakaudrove Sub Division", "division": "Northern Division"}}, {"type": "Feature", "id": 145, "geometry": {"type": "Point", "coordinates": [179.86019188860868, -16.257027934401496]}, "properties": {"name": "Tawake Nursing Station", "type": "Nursing Station", "sub_division": "Cakaudrove Sub Division", "division": "Northern Division"}}, {"type": "Feature", "id": 146, "geometry": {"type": "Point", "coordinates": [179.47129988900528, -16.7189410540465]}, "properties": {"name": "Navakaka Nursing Station", "type": "Nursing Station", "sub_division": "Cakaudrove Sub Division", "division": "Northern Division"}}, {"type": "Feature", "id": 147, "geometry": {"type": "Point", "coordinates": [179.25502448894918, -16.66296203901865]}, "properties": {"name": "Nabalebale Nursing Station", "type": "Nursing Station", "sub_division": "Cakaudrove Sub Division", "division": "Northern Division"}}, {"type": "Feature", "id": 148, "geometry": {"type": "Point", "coordinates": [179.35393888811166, -16.773962068895273]}, "properties": {"name": "Savusavu Health Center", "type": "Health Center", "sub_division": "Cakaudrove Sub Division", "division": "Northern Division"}}, {"type": "Feature", "id": 149, "geometry": {"type": "Point", "coordinates": [178.56056588894882, -17.71696231973195]}, "properties": {"name": "Lodoni Health Center", "type": "Health Center", "sub_division": "Tailevu Sub Division", "division": "Central Division"}}, {"type": "Feature", "id": 150, "geometry": {"type": "Point", "coordinates": [178.5786948882277, -17.645962300100027]}, "properties": {"name": "QVS Nursing Station", "type": "Nursing Station", "sub_division": "Tailevu Sub Division", "division": "Central Division"}}, {"type": "Feature", "id": 151, "geometry": {"type": "Point", "coordinates": [178.55565788838462, -17.72396232039809]}, "properties": {"name": "RKS Nursing Station", "type": "Nursing Station", "sub_division": "Tailevu Sub Division", "division": "Central Division"}}, {"type": "Feature", "id": 152, "geometry": {"type": "Point", "coordinates": [177.27915388854737, -17.970265388083316]}, "properties": {"name": "Tau Nursing Station", "type": "Nursing Station", "sub_division": "Nadroga/Navosa Sub Division", "division": "Western Division"}}, {"type": "Feature", "id": 153, "geometry": {"type": "Point", "coordinates": [177.7011538892154, -17.94887138262895]}, "properties": {"name": "Tuvu Nursing Station", "type": "Nursing Station", "sub_division": "Nadroga/Navosa Sub Division", "division": "Western Division"}}, {"type": "Feature", "id": 154, "geometry": {"type": "Point", "coordinates": [177.54115388884085, -17.74364132683786]}, "properties": {"name": "Nagado Nursing Station", "type": "Nursing Station", "sub_division": "Nadi Sub Division", "division": "Western Division"}}, {"type": "Feature", "id": 155, "geometry": {"type": "Point", "coordinates": [178.24157288917095, -17.529962269006564]}, "properties": {"name": "Waimaro Nursing Station", "type": "Nursing Station", "sub_division": "Ra Sub Division", "division": "Western Division"}}, {"type": "Feature", "id": 156, "geometry": {"type": "Point", "coordinates": [177.6406881887183, -17.64496229972999]}, "properties": {"name": "Nalotawa Nursing Station", "type": "Nursing Station", "sub_division": "Ba Sub Division", "division": "Western Division"}}, {"type": "Feature", "id": 157, "geometry": {"type": "Point", "coordinates": [177.80164688875328, -17.61796229258697]}, "properties": {"name": "Namau Nursing Station", "type": "Nursing Station", "sub_division": "Ba Sub Division", "division": "Western Division"}}, {"type": "Feature", "id": 158, "geometry": {"type": "Point", "coordinates": [177.96365938825554, -17.56696227832056]}, "properties": {"name": "Nadarivatu Health Center", "type": "Nursing Station", "sub_division": "Tavua Sub Division", "division": "Western Division"}}, {"type": "Feature", "id": 159, "geometry": {"type": "Point", "coordinates": [177.92723128843582, -17.68796231176821]}, "properties": {"name": "Nagatagata Nursing Station", "type": "Nursing Station", "sub_division": "Tavua Sub Division", "division": "Western Division"}}, {"type": "Feature", "id": 160, "geometry": {"type": "Point", "coordinates": [178.13143688900345, -17.570962279220335]}, "properties": {"name": "Nasavu Nursing Station", "type": "Nursing Station", "sub_division": "Ra Sub Division", "division": "Western Division"}}, {"type": "Feature", "id": 161, "geometry": {"type": "Point", "coordinates": [178.12045018962542, -17.506962262961164]}, "properties": {"name": "Tokaimalo Nursing Station", "type": "Nursing Station", "sub_division": "Ra Sub Division", "division": "Western Division"}}, {"type": "Feature", "id": 162, "geometry": {"type": "Point", "coordinates": [178.29755388891402, -17.440962244889846]}, "properties": {"name": "Nayavuira Nursing Station", "type": "Nursing Station", "sub_division": "Ra Sub Division", "division": "Western Division"}}, {"type": "Feature", "id": 163, "geometry": {"type": "Point", "coordinates": [178.05871788885966, -17.370962226318365]}, "properties": {"name": "Vunitogoloa Nursing Station", "type": "Nursing Station", "sub_division": "Ra Sub Division", "division": "Western Division"}}, {"type": "Feature", "id": 164, "geometry": {"type": "Point", "coordinates": [177.57999528899353, -16.708962050626493]}, "properties": {"name": "Yasawa I Rara Nursing Station", "type": "Nursing Station", "sub_division": "Lautoka/Yasawa Sub Division", "division": "Western Division"}}, {"type": "Feature", "id": 165, "geometry": {"type": "Point", "coordinates": [176.91228068816665, -17.14896216676921]}, "properties": {"name": "Viwa Nursing Station", "type": "Nursing Station", "sub_division": "Lautoka/Yasawa Sub Division", "division": "Western Division"}}, {"type": "Feature", "id": 166, "geometry": {"type": "Point", "coordinates": [177.8449138892931, -17.75696232989246]}, "properties": {"name": "Nanoko Nursing Station", "type": "Nursing Station", "sub_division": "Nadi Sub Division", "division": "Western Division"}}, {"type": "Feature", "id": 167, "geometry": {"type": "Point", "coordinates": [177.6096378884449, -17.8179623470185]}, "properties": {"name": "Nausori Highland Nursing Station", "type": "Nursing Station", "sub_division": "Nadi Sub Division", "division": "Western Division"}}, {"type": "Feature", "id": 168, "geometry": {"type": "Point", "coordinates": [177.36246328903314, -17.88496236537925]}, "properties": {"name": "Nawaicoba Nursing Station", "type": "Nursing Station", "sub_division": "Nadi Sub Division", "division": "Western Division"}}, {"type": "Feature", "id": 169, "geometry": {"type": "Point", "coordinates": [177.28540398888916, -17.90896237144345]}, "properties": {"name": "Momi Nursing Station", "type": "Nursing Station", "sub_division": "Nadi Sub Division", "division": "Western Division"}}, {"type": "Feature", "id": 170, "geometry": {"type": "Point", "coordinates": [178.4996566672604, -17.618615069825175]}, "properties": {"name": "Dawasamu Nursing Station", "type": "Nursing Station", "sub_division": "Tailevu Sub Division", "division": "Central Division"}}, {"type": "Feature", "id": 171, "geometry": {"type": "Point", "coordinates": [177.11931738905756, -17.304962207956034]}, "properties": {"name": "Yalobi Nursing Station", "type": "Nursing Station", "sub_division": "Lautoka/Yasawa Sub Division", "division": "Western Division"}}, {"type": "Feature", "id": 172, "geometry": {"type": "Point", "coordinates": [177.06583288807232, -17.598962287390876]}, "properties": {"name": "Yanuya Nursing Station", "type": "Nursing Station", "sub_division": "Lautoka/Yasawa Sub Division", "division": "Western Division"}}, {"type": "Feature", "id": 173, "geometry": {"type": "Point", "coordinates": [177.26346088933218, -17.10296215509119]}, "properties": {"name": "Somosomo Nursing Station", "type": "Nursing Station", "sub_division": "Lautoka/Yasawa Sub Division", "division": "Western Division"}}, {"type": "Feature", "id": 174, "geometry": {"type": "Point", "coordinates": [177.3404534892122, -16.99696212669947]}, "properties": {"name": "Yaqeta Nursing Station", "type": "Nursing Station", "sub_division": "Lautoka/Yasawa Sub Division", "division": "Western Division"}}, {"type": "Feature", "id": 175, "geometry": {"type": "Point", "coordinates": [177.3964637894545, -16.891962099633506]}, "properties": {"name": "Nacula Health Center", "type": "Health Center", "sub_division": "Lautoka/Yasawa Sub Division", "division": "Western Division"}}, {"type": "Feature", "id": 176, "geometry": {"type": "Point", "coordinates": [177.51762168841344, -16.79296207285858]}, "properties": {"name": "Teci Nursing Station", "type": "Nursing Station", "sub_division": "Lautoka/Yasawa Sub Division", "division": "Western Division"}}, {"type": "Feature", "id": 177, "geometry": {"type": "Point", "coordinates": [177.1833298895219, -17.74496232682994]}, "properties": {"name": "Malolo Health Center", "type": "Health Center", "sub_division": "Lautoka/Yasawa Sub Division", "division": "Western Division"}}, {"type": "Feature", "id": 178, "geometry": {"type": "Point", "coordinates": [177.42215388874516, -17.803746342574193]}, "properties": {"name": "Nadi Health Center", "type": "Health Center", "sub_division": "Nadi Sub Division", "division": "Western Division"}}, {"type": "Feature", "id": 179, "geometry": {"type": "Point", "coordinates": [177.86515388817645, -17.4456042452931]}, "properties": {"name": "Tavua Health Center", "type": "Health Center", "sub_division": "Tavua Sub Division", "division": "Western Division"}}, {"type": "Feature", "id": 180, "geometry": {"type": "Point", "coordinates": [179.37515388871077, -16.430435979724578]}, "properties": {"name": "Nasea Health Center", "type": "Health Center", "sub_division": "Macuata Sub Division", "division": "Northern Division"}}, {"type": "Feature", "id": 181, "geometry": {"type": "Point", "coordinates": [178.53615388899718, -17.805055343101326]}, "properties": {"name": "Korovou Health Center", "type": "Health Center", "sub_division": "Tailevu Sub Division", "division": "Central Division"}}, {"type": "Feature", "id": 182, "geometry": {"type": "Point", "coordinates": [178.3845599796303, -17.828994367773102]}, "properties": {"name": "Vatukarasa Nursing Station", "type": "Nursing Station", "sub_division": "Tailevu Sub Division", "division": "Central Division"}}, {"type": "Feature", "id": 183, "geometry": {"type": "Point", "coordinates": [177.56689555640762, -18.05592630090903]}, "properties": {"name": "Raiwaqa Health Station", "type": "Health Center", "sub_division": "Nadroga/Navosa Sub Division", "division": "Western Division"}}, {"type": "Feature", "id": 184, "geometry": {"type": "Point", "coordinates": [177.62849277840556, -17.970654054812126]}, "properties": {"name": "Naqalimare Nursing Station", "type": "Nursing Station", "sub_division": "Nadroga/Navosa Sub Division", "division": "Western Division"}}, {"type": "Feature", "id": 185, "geometry": {"type": "Point", "coordinates": [177.50672611033048, -18.141356879993676]}, "properties": {"name": "Sigatoka Health Center", "type": "Health Center", "sub_division": "Nadroga/Navosa Sub Division", "division": "Western Division"}}, {"type": "Feature", "id": 186, "geometry": {"type": "Point", "coordinates": [177.64197611177218, -18.51237920465058]}, "properties": {"name": "Vatulele Health Station", "type": "Health Center", "sub_division": "Nadroga/Navosa Sub Division", "division": "Western Division"}}, {"type": "Feature", "id": 187, "geometry": {"type": "Point", "coordinates": [178.1641538890533, -17.382443229074035]}, "properties": {"name": "Rakiraki Health Center", "type": "Health Center", "sub_division": "Ra Sub Division", "division": "Western Division"}}, {"type": "Feature", "id": 188, "geometry": {"type": "Point", "coordinates": [179.38115388868076, -16.42859897781445]}, "properties": {"name": "Labasa Health Center", "type": "Health Center", "sub_division": "Macuata Sub Division", "division": "Northern Division"}}, {"type": "Feature", "id": 189, "geometry": {"type": "Point", "coordinates": [179.55786878956633, -16.303961946632256]}, "properties": {"name": "Wainikoro Health Center", "type": "Health Center", "sub_division": "Macuata Sub Division", "division": "Northern Division"}}, {"type": "Feature", "id": 190, "geometry": {"type": "Point", "coordinates": [179.8382278883594, -16.24396193057244]}, "properties": {"name": "Lagi Health Center", "type": "Health Center", "sub_division": "Macuata Sub Division", "division": "Northern Division"}}, {"type": "Feature", "id": 191, "geometry": {"type": "Point", "coordinates": [179.14341188881485, -16.440961982518477]}, "properties": {"name": "Naduri Health Center", "type": "Health Center", "sub_division": "Macuata Sub Division", "division": "Northern Division"}}, {"type": "Feature", "id": 192, "geometry": {"type": "Point", "coordinates": [178.9022368886811, -16.587962019675064]}, "properties": {"name": "Dreketi Health Center", "type": "Health Center", "sub_division": "Macuata Sub Division", "division": "Northern Division"}}, {"type": "Feature", "id": 193, "geometry": {"type": "Point", "coordinates": [179.1422218888802, -16.51896200202017]}, "properties": {"name": "Seaqaqa Health Center", "type": "Health Center", "sub_division": "Macuata Sub Division", "division": "Northern Division"}}, {"type": "Feature", "id": 194, "geometry": {"type": "Point", "coordinates": [179.66133288894707, -16.217961924274793]}, "properties": {"name": "Visoqo Nursing Station", "type": "Nursing Station", "sub_division": "Macuata Sub Division", "division": "Northern Division"}}, {"type": "Feature", "id": 195, "geometry": {"type": "Point", "coordinates": [179.464111888962, -16.374961965146607]}, "properties": {"name": "Coqeloa Nursing Station", "type": "Nursing Station", "sub_division": "Macuata Sub Division", "division": "Northern Division"}}, {"type": "Feature", "id": 196, "geometry": {"type": "Point", "coordinates": [179.51232888883374, -16.294961944009913]}, "properties": {"name": "Vunivutu Nursing Station", "type": "Nursing Station", "sub_division": "Macuata Sub Division", "division": "Northern Division"}}, {"type": "Feature", "id": 197, "geometry": {"type": "Point", "coordinates": [179.01766868851956, -16.47696199152135]}, "properties": {"name": "Naqumu Nursing Station", "type": "Nursing Station", "sub_division": "Macuata Sub Division", "division": "Northern Division"}}, {"type": "Feature", "id": 198, "geometry": {"type": "Point", "coordinates": [179.09598198869492, -16.23496192823729]}, "properties": {"name": "Kia Nursing Station", "type": "Nursing Station", "sub_division": "Macuata Sub Division", "division": "Northern Division"}}, {"type": "Feature", "id": 199, "geometry": {"type": "Point", "coordinates": [178.22977918946134, -17.447962246814203]}, "properties": {"name": "Nanukuloa Health Center", "type": "Health Center", "sub_division": "Ra Sub Division", "division": "Western Division"}}, {"type": "Feature", "id": 200, "geometry": {"type": "Point", "coordinates": [178.2259448888273, -17.456962249449305]}, "properties": {"name": "Naiserelagi Maternity", "type": "Private Hospital", "sub_division": "Ra Sub Division", "division": "Western Division"}}, {"type": "Feature", "id": 201, "geometry": {"type": "Point", "coordinates": [179.70824088948496, -16.304961946722592]}, "properties": {"name": "Dogotuki Nursing Station", "type": "Nursing Station", "sub_division": "Macuata Sub Division", "division": "Northern Division"}}, {"type": "Feature", "id": 202, "geometry": {"type": "Point", "coordinates": [179.989596189055, -16.146961907009004]}, "properties": {"name": "Udu Nursing Station", "type": "Nursing Station", "sub_division": "Macuata Sub Division", "division": "Northern Division"}}, {"type": "Feature", "id": 203, "geometry": {"type": "Point", "coordinates": [178.08119558898883, -17.67496230778686]}, "properties": {"name": "Nasoqo Nursing Station", "type": "Nursing Station", "sub_division": "Naitasiri Sub Division", "division": "Central Division"}}, {"type": "Feature", "id": 204, "geometry": {"type": "Point", "coordinates": [178.08415388889685, -17.71409531822606]}, "properties": {"name": "Nabobuco Nursing Station", "type": "Nursing Station", "sub_division": "Naitasiri Sub Division", "division": "Central Division"}}, {"type": "Feature", "id": 205, "geometry": {"type": "Point", "coordinates": [178.10361988889233, -17.851962355657907]}, "properties": {"name": "Narokorokoyawa Nursing Station", "type": "Nursing Station", "sub_division": "Naitasiri Sub Division", "division": "Central Division"}}, {"type": "Feature", "id": 206, "geometry": {"type": "Point", "coordinates": [178.12893988889252, -17.751962329506526]}, "properties": {"name": "Laselevu Health Center", "type": "Health Center", "sub_division": "Naitasiri Sub Division", "division": "Central Division"}}, {"type": "Feature", "id": 207, "geometry": {"type": "Point", "coordinates": [178.622683488714, -17.84896235521787]}, "properties": {"name": "Verata Nursing Station", "type": "Nursing Station", "sub_division": "Tailevu Sub Division", "division": "Central Division"}}, {"type": "Feature", "id": 208, "geometry": {"type": "Point", "coordinates": [178.37625028535092, -17.808419925444074]}, "properties": {"name": "Tonia Nursing Station", "type": "Nursing Station", "sub_division": "Tailevu Sub Division", "division": "Central Division"}}, {"type": "Feature", "id": 209, "geometry": {"type": "Point", "coordinates": [178.3532208895441, -17.947496382460614]}, "properties": {"name": "Naqali Health Center", "type": "Health Center", "sub_division": "Naitasiri Sub Division", "division": "Central Division"}}, {"type": "Feature", "id": 210, "geometry": {"type": "Point", "coordinates": [177.8651538881864, -17.893606367367667]}, "properties": {"name": "Nukuilau Nursing Station", "type": "Nursing Station", "sub_division": "Nadroga/Navosa Sub Division", "division": "Western Division"}}, {"type": "Feature", "id": 211, "geometry": {"type": "Point", "coordinates": [177.45001598873822, -16.83996208563135]}, "properties": {"name": "Tamusua Nursing Station", "type": "Nursing Station", "sub_division": "Lautoka/Yasawa Sub Division", "division": "Western Division"}}, {"type": "Feature", "id": 212, "geometry": {"type": "Point", "coordinates": [-179.88884611144752, -15.754900807560567]}, "properties": {"name": "Cikobia Nursing Station", "type": "Nursing Station", "sub_division": "Macuata Sub Division", "division": "Northern Division"}}, {"type": "Feature", "id": 213, "geometry": {"type": "Point", "coordinates": [177.94640888933066, -17.708016316403626]}, "properties": {"name": "Nadrau Nursing Station", "type": "Nursing Station", "sub_division": "Tavua Sub Division", "division": "Northern Division"}}, {"type": "Feature", "id": 214, "geometry": {"type": "Point", "coordinates": [178.0788520716866, -17.97946620565198]}, "properties": {"name": "Naqawai Nursing Station", "type": "Nursing Station", "sub_division": "Namosi Sub Division", "division": "Central Division"}}]}